{
  "meta":{
    "code":200,
    "requestId":"5d895670b77c77003919c456"
  },
  "response":{
    "venues":[
      {
        "id":"4c37e62d6ec69c74c89104a9",
        "name":"Pastino's Pasta & Pizza",
        "location":{
          "address":"4207 Park Blvd",
          "crossStreet":"btw Glen Park Rd & Glenfield Ave",
          "lat":37.807451999494496,
          "lng":-122.22259954988006,
          "labeledLatLngs":[{"label":"display","lat":37.807451999494496,"lng":-122.22259954988006}],
          "distance":1446,
          "postalCode":"94602",
          "cc":"US",
          "city":"Oakland",
          "state":"CA",
          "country":"United States",
          "formattedAddress":["4207 Park Blvd (btw Glen Park Rd & Glenfield Ave)","Oakland, CA 94602","United States"]
        },
      "categories":[
        {
          "id":"4bf58dd8d48988d1ca941735",
          "name":"Pizza Place",
          "pluralName":"Pizza Places",
          "shortName":"Pizza",
          "icon":{
            "prefix":"https://ss3.4sqi.net/img/categories_v2/food/pizza_","suffix":".png"
          },
          "primary":true
        }
      ],
      "delivery":{
        "id":"58398",
        "url":"https://www.grubhub.com/restaurant/pastinos-pasta--pizza-4207-park-blvd-oakland/58398?affiliate=1131&utm_source=foursquare-affiliate-network&utm_medium=affiliate&utm_campaign=1131&utm_content=58398",
        "provider":{
          "name":"grubhub",
          "icon":{
            "prefix":"https://fastly.4sqi.net/img/general/cap/",
            "sizes":[40,50],
            "name":"/delivery_provider_grubhub_20180129.png"
          }
        }
      },
      "referralId":"v-1569281648",
      "hasPerk":false
    },
    {
      "id":"4b7c9461f964a520169c2fe3","name":"Round Table Pizza","location":{"address":"398 Grand Ave","crossStreet":"at Staten Ave","lat":37.808962,"lng":-122.254018,"labeledLatLngs":[{"label":"display","lat":37.808962,"lng":-122.254018}],"distance":1411,"postalCode":"94610","cc":"US","city":"Oakland","state":"CA","country":"United States","formattedAddress":["398 Grand Ave (at Staten Ave)","Oakland, CA 94610","United States"]},"categories":[{"id":"4bf58dd8d48988d1ca941735","name":"Pizza Place","pluralName":"Pizza Places","shortName":"Pizza","icon":{"prefix":"https://ss3.4sqi.net/img/categories_v2/food/pizza_","suffix":".png"},"primary":true}],"delivery":{"id":"258679","url":"https://www.grubhub.com/restaurant/round-table-pizza-936-398-grand-ave-oakland/258679?affiliate=1131&utm_source=foursquare-affiliate-network&utm_medium=affiliate&utm_campaign=1131&utm_content=258679","provider":{"name":"grubhub","icon":{"prefix":"https://fastly.4sqi.net/img/general/cap/","sizes":[40,50],"name":"/delivery_provider_grubhub_20180129.png"}}},"referralId":"v-1569281648","hasPerk":false},{"id":"43917e6ef964a5205d2b1fe3","name":"Zachary's Chicago Pizza","location":{"address":"5801 College Ave","crossStreet":"at Oak Grove Ave","lat":37.8462752693253,"lng":-122.25204128552018,"labeledLatLngs":[{"label":"display","lat":37.8462752693253,"lng":-122.25204128552018}],"distance":4065,"postalCode":"94618","cc":"US","city":"Oakland","state":"CA","country":"United States","formattedAddress":["5801 College Ave (at Oak Grove Ave)","Oakland, CA 94618","United States"]},"categories":[{"id":"4bf58dd8d48988d1ca941735","name":"Pizza Place","pluralName":"Pizza Places","shortName":"Pizza","icon":{"prefix":"https://ss3.4sqi.net/img/categories_v2/food/pizza_","suffix":".png"},"primary":true}],"referralId":"v-1569281648","hasPerk":false},{"id":"4bb04a73f964a520e23f3ce3","name":"Cheese Board Pizza","location":{"address":"1512 Shattuck Ave","crossStreet":"at Vine St","lat":37.879873403960836,"lng":-122.2692930474587,"labeledLatLngs":[{"label":"display","lat":37.879873403960836,"lng":-122.2692930474587}],"distance":8094,"postalCode":"94709","cc":"US","city":"Berkeley","state":"CA","country":"United States","formattedAddress":["1512 Shattuck Ave (at Vine St)","Berkeley, CA 94709","United States"]},"categories":[{"id":"4bf58dd8d48988d1ca941735","name":"Pizza Place","pluralName":"Pizza Places","shortName":"Pizza","icon":{"prefix":"https://ss3.4sqi.net/img/categories_v2/food/pizza_","suffix":".png"},"primary":true}],"referralId":"v-1569281648","hasPerk":false},{"id":"4aa997f6f964a5206c5420e3","name":"Amazonas Pizza","location":{"address":"2427 Telegraph Ave","crossStreet":"btwn 24th & 25th","lat":37.813924629535215,"lng":-122.26863351938076,"labeledLatLngs":[{"label":"display","lat":37.813924629535215,"lng":-122.26863351938076}],"distance":2685,"postalCode":"94612","cc":"US","city":"Oakland","state":"CA","country":"United States","formattedAddress":["2427 Telegraph Ave (btwn 24th & 25th)","Oakland, CA 94612","United States"]},"categories":[{"id":"4bf58dd8d48988d1ca941735","name":"Pizza Place","pluralName":"Pizza Places","shortName":"Pizza","icon":{"prefix":"https://ss3.4sqi.net/img/categories_v2/food/pizza_","suffix":".png"},"primary":true}],"referralId":"v-1569281648","hasPerk":false},{"id":"4a87697ef964a520440420e3","name":"California Pizza Kitchen","location":{"address":"5614 Bay St., Ste. 244, Bay Street - Emeryville","lat":37.834226,"lng":-122.292099,"labeledLatLngs":[{"label":"display","lat":37.834226,"lng":-122.292099}],"distance":5371,"postalCode":"94608","cc":"US","city":"Emeryville","state":"CA","country":"United States","formattedAddress":["5614 Bay St., Ste. 244, Bay Street - Emeryville","Emeryville, CA 94608","United States"]},"categories":[{"id":"4bf58dd8d48988d1ca941735","name":"Pizza Place","pluralName":"Pizza Places","shortName":"Pizza","icon":{"prefix":"https://ss3.4sqi.net/img/categories_v2/food/pizza_","suffix":".png"},"primary":true}],"referralId":"v-1569281648","hasPerk":false},{"id":"4a9c2e9bf964a5204f3620e3","name":"Pizza My Heart","location":{"address":"5613 Bay St","crossStreet":"Bay Street Mall","lat":37.8338420348118,"lng":-122.29237811131128,"labeledLatLngs":[{"label":"display","lat":37.8338420348118,"lng":-122.29237811131128}],"distance":5373,"postalCode":"94608","cc":"US","city":"Emeryville","state":"CA","country":"United States","formattedAddress":["5613 Bay St (Bay Street Mall)","Emeryville, CA 94608","United States"]},"categories":[{"id":"4bf58dd8d48988d1ca941735","name":"Pizza Place","pluralName":"Pizza Places","shortName":"Pizza","icon":{"prefix":"https://ss3.4sqi.net/img/categories_v2/food/pizza_","suffix":".png"},"primary":true}],"delivery":{"id":"184790","url":"https://www.grubhub.com/restaurant/pizza-my-heart-5613-bay-st-emeryville/184790?affiliate=1131&utm_source=foursquare-affiliate-network&utm_medium=affiliate&utm_campaign=1131&utm_content=184790","provider":{"name":"grubhub","icon":{"prefix":"https://fastly.4sqi.net/img/general/cap/","sizes":[40,50],"name":"/delivery_provider_grubhub_20180129.png"}}},"referralId":"v-1569281648","hasPerk":false},{"id":"4bc783368b7c9c740f9936cf","name":"Lanesplitter Pizza & Pub","location":{"address":"3645 San Pablo Ave","lat":37.82817300849504,"lng":-122.27918247515609,"labeledLatLngs":[{"label":"display","lat":37.82817300849504,"lng":-122.27918247515609}],"distance":4052,"postalCode":"94608","cc":"US","city":"Emeryville","state":"CA","country":"United States","formattedAddress":["3645 San Pablo Ave","Emeryville, CA 94608","United States"]},"categories":[{"id":"4bf58dd8d48988d1ca941735","name":"Pizza Place","pluralName":"Pizza Places","shortName":"Pizza","icon":{"prefix":"https://ss3.4sqi.net/img/categories_v2/food/pizza_","suffix":".png"},"primary":true}],"referralId":"v-1569281648","hasPerk":false},{"id":"4ac41d8ef964a520419e20e3","name":"Red Boy Pizza Oakland-Montclair","location":{"address":"1500 Leimert Blvd","lat":37.81159611454556,"lng":-122.21209430777817,"labeledLatLngs":[{"label":"display","lat":37.81159611454556,"lng":-122.21209430777817}],"distance":2301,"postalCode":"94602","cc":"US","city":"Oakland","state":"CA","country":"United States","formattedAddress":["1500 Leimert Blvd","Oakland, CA 94602","United States"]},"categories":[{"id":"4bf58dd8d48988d1ca941735","name":"Pizza Place","pluralName":"Pizza Places","shortName":"Pizza","icon":{"prefix":"https://ss3.4sqi.net/img/categories_v2/food/pizza_","suffix":".png"},"primary":true}],"delivery":{"id":"563063","url":"https://www.grubhub.com/restaurant/red-boy-pizza-1500-leimert-blvd-oakland/563063?affiliate=1131&utm_source=foursquare-affiliate-network&utm_medium=affiliate&utm_campaign=1131&utm_content=563063","provider":{"name":"grubhub","icon":{"prefix":"https://fastly.4sqi.net/img/general/cap/","sizes":[40,50],"name":"/delivery_provider_grubhub_20180129.png"}}},"venuePage":{"id":"511570906"},"referralId":"v-1569281648","hasPerk":false},{"id":"55e10610498eb6646fa2aade","name":"SPIN! Neapolitan Pizza Alameda","location":{"address":"2670 5th St.","lat":37.786707,"lng":-122.2813408,"labeledLatLngs":[{"label":"display","lat":37.786707,"lng":-122.2813408}],"distance":4681,"postalCode":"94501","cc":"US","city":"Alameda","state":"CA","country":"United States","formattedAddress":["2670 5th St.","Alameda, CA 94501","United States"]},"categories":[{"id":"4bf58dd8d48988d1ca941735","name":"Pizza Place","pluralName":"Pizza Places","shortName":"Pizza","icon":{"prefix":"https://ss3.4sqi.net/img/categories_v2/food/pizza_","suffix":".png"},"primary":true}],"referralId":"v-1569281648","hasPerk":false},{"id":"4d0afb11d8d78cfa1f531abe","name":"Lake Merritt Pizza","location":{"address":"300 E 18th St","crossStreet":"at 3rd Ave","lat":37.79971837262839,"lng":-122.25173232044962,"labeledLatLngs":[{"label":"display","lat":37.79971837262839,"lng":-122.25173232044962}],"distance":1759,"postalCode":"94606","cc":"US","city":"Oakland","state":"CA","country":"United States","formattedAddress":["300 E 18th St (at 3rd Ave)","Oakland, CA 94606","United States"]},"categories":[{"id":"4bf58dd8d48988d1ca941735","name":"Pizza Place","pluralName":"Pizza Places","shortName":"Pizza","icon":{"prefix":"https://ss3.4sqi.net/img/categories_v2/food/pizza_","suffix":".png"},"primary":true}],"referralId":"v-1569281648","hasPerk":false},{"id":"4ac6c80ff964a5203db620e3","name":"Zachary's Chicago Pizza","location":{"address":"1853 Solano Ave","crossStreet":"btw Colusa Ave & Fresno Ave","lat":37.89145264021218,"lng":-122.27860846468131,"labeledLatLngs":[{"label":"display","lat":37.89145264021218,"lng":-122.27860846468131}],"distance":9589,"postalCode":"94707","cc":"US","city":"Berkeley","state":"CA","country":"United States","formattedAddress":["1853 Solano Ave (btw Colusa Ave & Fresno Ave)","Berkeley, CA 94707","United States"]},"categories":[{"id":"4bf58dd8d48988d1ca941735","name":"Pizza Place","pluralName":"Pizza Places","shortName":"Pizza","icon":{"prefix":"https://ss3.4sqi.net/img/categories_v2/food/pizza_","suffix":".png"},"primary":true}],"referralId":"v-1569281648","hasPerk":false},{"id":"4a88b0dbf964a520650720e3","name":"Arinell Pizza","location":{"address":"2109 Shattuck Ave","crossStreet":"btw Center & Addison St","lat":37.8708900363034,"lng":-122.2677405907747,"labeledLatLngs":[{"label":"display","lat":37.8708900363034,"lng":-122.2677405907747}],"distance":7110,"postalCode":"94704","cc":"US","city":"Berkeley","state":"CA","country":"United States","formattedAddress":["2109 Shattuck Ave (btw Center & Addison St)","Berkeley, CA 94704","United States"]},"categories":[{"id":"4bf58dd8d48988d1ca941735","name":"Pizza Place","pluralName":"Pizza Places","shortName":"Pizza","icon":{"prefix":"https://ss3.4sqi.net/img/categories_v2/food/pizza_","suffix":".png"},"primary":true}],"referralId":"v-1569281648","hasPerk":false},{"id":"4a808199f964a5207ef51fe3","name":"Cybelle's Pizza","location":{"address":"6468 Moraga Ave","crossStreet":"LaSalle","lat":37.82650534720474,"lng":-122.21063354500914,"labeledLatLngs":[{"label":"display","lat":37.82650534720474,"lng":-122.21063354500914}],"distance":2954,"postalCode":"94611","cc":"US","city":"Piedmont","state":"CA","country":"United States","formattedAddress":["6468 Moraga Ave (LaSalle)","Piedmont, CA 94611","United States"]},"categories":[{"id":"4bf58dd8d48988d1ca941735","name":"Pizza Place","pluralName":"Pizza Places","shortName":"Pizza","icon":{"prefix":"https://ss3.4sqi.net/img/categories_v2/food/pizza_","suffix":".png"},"primary":true}],"delivery":{"id":"979643","url":"https://www.grubhub.com/restaurant/cybelles-pizza-6468-moraga-ave-oakland/979643?affiliate=1131&utm_source=foursquare-affiliate-network&utm_medium=affiliate&utm_campaign=1131&utm_content=979643","provider":{"name":"grubhub","icon":{"prefix":"https://fastly.4sqi.net/img/general/cap/","sizes":[40,50],"name":"/delivery_provider_grubhub_20180129.png"}}},"referralId":"v-1569281648","hasPerk":false},{"id":"4bf4842bcad2c92881119c99","name":"Pizza Rustica","location":{"address":"6106 La Salle Ave","crossStreet":"at Moraga Ave","lat":37.826283455891534,"lng":-122.21023151470148,"labeledLatLngs":[{"label":"display","lat":37.826283455891534,"lng":-122.21023151470148}],"distance":2969,"postalCode":"94611","cc":"US","city":"Oakland","state":"CA","country":"United States","formattedAddress":["6106 La Salle Ave (at Moraga Ave)","Oakland, CA 94611","United States"]},"categories":[{"id":"4bf58dd8d48988d1ca941735","name":"Pizza Place","pluralName":"Pizza Places","shortName":"Pizza","icon":{"prefix":"https://ss3.4sqi.net/img/categories_v2/food/pizza_","suffix":".png"},"primary":true}],"referralId":"v-1569281648","hasPerk":false},{"id":"4df981c081dcd7ecc37dae90","name":"Romano's Pizza Inc.","location":{"address":"2028 MacArthur Blvd","crossStreet":"Dimond Ave.","lat":37.80076459715454,"lng":-122.21772909164429,"labeledLatLngs":[{"label":"display","lat":37.80076459715454,"lng":-122.21772909164429}],"distance":2160,"postalCode":"94602","cc":"US","city":"Oakland","state":"CA","country":"United States","formattedAddress":["2028 MacArthur Blvd (Dimond Ave.)","Oakland, CA 94602","United States"]},"categories":[{"id":"4bf58dd8d48988d1ca941735","name":"Pizza Place","pluralName":"Pizza Places","shortName":"Pizza","icon":{"prefix":"https://ss3.4sqi.net/img/categories_v2/food/pizza_","suffix":".png"},"primary":true}],"referralId":"v-1569281648","hasPerk":false},{"id":"4bd676674e32d13aacbec280","name":"Five Star Pizza & Deli","location":{"address":"3109 Telegraph Ave","crossStreet":"31 st","lat":37.820216033684886,"lng":-122.26710846462181,"labeledLatLngs":[{"label":"display","lat":37.820216033684886,"lng":-122.26710846462181}],"distance":2719,"postalCode":"94609","cc":"US","city":"Oakland","state":"CA","country":"United States","formattedAddress":["3109 Telegraph Ave (31 st)","Oakland, CA 94609","United States"]},"categories":[{"id":"4bf58dd8d48988d1ca941735","name":"Pizza Place","pluralName":"Pizza Places","shortName":"Pizza","icon":{"prefix":"https://ss3.4sqi.net/img/categories_v2/food/pizza_","suffix":".png"},"primary":true}],"referralId":"v-1569281648","hasPerk":false},{"id":"4b612646f964a520340b2ae3","name":"CyBelle's Pizza","location":{"address":"3465 Fruitvale Ave","crossStreet":"MacArthur Blvd","lat":37.80028346469289,"lng":-122.21631888525005,"labeledLatLngs":[{"label":"display","lat":37.80028346469289,"lng":-122.21631888525005}],"distance":2293,"postalCode":"94602","cc":"US","city":"Oakland","state":"CA","country":"United States","formattedAddress":["3465 Fruitvale Ave (MacArthur Blvd)","Oakland, CA 94602","United States"]},"categories":[{"id":"4bf58dd8d48988d1ca941735","name":"Pizza Place","pluralName":"Pizza Places","shortName":"Pizza","icon":{"prefix":"https://ss3.4sqi.net/img/categories_v2/food/pizza_","suffix":".png"},"primary":true}],"referralId":"v-1569281648","hasPerk":false},{"id":"4aee31e9f964a520e9d221e3","name":"Leaning Tower of Pizza","location":{"address":"498 Wesley Ave","crossStreet":"at Brooklyn Ave","lat":37.804616631658824,"lng":-122.24949384311016,"labeledLatLngs":[{"label":"display","lat":37.804616631658824,"lng":-122.24949384311016}],"distance":1243,"postalCode":"94606","cc":"US","city":"Oakland","state":"CA","country":"United States","formattedAddress":["498 Wesley Ave (at Brooklyn Ave)","Oakland, CA 94606","United States"]},"categories":[{"id":"4bf58dd8d48988d1ca941735","name":"Pizza Place","pluralName":"Pizza Places","shortName":"Pizza","icon":{"prefix":"https://ss3.4sqi.net/img/categories_v2/food/pizza_","suffix":".png"},"primary":true}],"referralId":"v-1569281648","hasPerk":false},{"id":"4d277404915fa093c391f309","name":"Da Vinci's Pasta & Pizza","location":{"address":"1814 Franklin St","lat":37.807209819846875,"lng":-122.26740754629668,"labeledLatLngs":[{"label":"display","lat":37.807209819846875,"lng":-122.26740754629668}],"distance":2605,"postalCode":"94612","cc":"US","city":"Oakland","state":"CA","country":"United States","formattedAddress":["1814 Franklin St","Oakland, CA 94612","United States"]},"categories":[{"id":"4bf58dd8d48988d110941735","name":"Italian Restaurant","pluralName":"Italian Restaurants","shortName":"Italian","icon":{"prefix":"https://ss3.4sqi.net/img/categories_v2/food/italian_","suffix":".png"},"primary":true}],"referralId":"v-1569281648","hasPerk":false},{"id":"4bf731dcabdaef3bf36fa184","name":"Mama Rosa's Pizza and Fried Chicken","location":{"address":"2370 High St","crossStreet":"at Fairfax","lat":37.785292066361045,"lng":-122.20817856455253,"labeledLatLngs":[{"label":"display","lat":37.785292066361045,"lng":-122.20817856455253}],"distance":3931,"postalCode":"94601","cc":"US","city":"Oakland","state":"CA","country":"United States","formattedAddress":["2370 High St (at Fairfax)","Oakland, CA 94601","United States"]},"categories":[{"id":"4bf58dd8d48988d1ca941735","name":"Pizza Place","pluralName":"Pizza Places","shortName":"Pizza","icon":{"prefix":"https://ss3.4sqi.net/img/categories_v2/food/pizza_","suffix":".png"},"primary":true}],"venuePage":{"id":"109493077"},"referralId":"v-1569281648","hasPerk":false},{"id":"4a2938eef964a5206b951fe3","name":"Red Boy Pizza Redwood Road","location":{"address":"4100 Redwood Rd","lat":37.7978808452799,"lng":-122.18237133199668,"labeledLatLngs":[{"label":"display","lat":37.7978808452799,"lng":-122.18237133199668}],"distance":5141,"postalCode":"94619","cc":"US","city":"Oakland","state":"CA","country":"United States","formattedAddress":["4100 Redwood Rd","Oakland, CA 94619","United States"]},"categories":[{"id":"4bf58dd8d48988d1ca941735","name":"Pizza Place","pluralName":"Pizza Places","shortName":"Pizza","icon":{"prefix":"https://ss3.4sqi.net/img/categories_v2/food/pizza_","suffix":".png"},"primary":true}],"delivery":{"id":"560876","url":"https://www.grubhub.com/restaurant/red-boy-pizza-4100-redwood-rd-oakland/560876?affiliate=1131&utm_source=foursquare-affiliate-network&utm_medium=affiliate&utm_campaign=1131&utm_content=560876","provider":{"name":"grubhub","icon":{"prefix":"https://fastly.4sqi.net/img/general/cap/","sizes":[40,50],"name":"/delivery_provider_grubhub_20180129.png"}}},"venuePage":{"id":"513272679"},"referralId":"v-1569281648","hasPerk":false},{"id":"59c51f118134883ec2356a94","name":"California Pizza Kitchen","location":{"address":"1 Airporr Dr","lat":37.730603,"lng":-122.229384,"labeledLatLngs":[{"label":"display","lat":37.730603,"lng":-122.229384}],"distance":9029,"postalCode":"94502","cc":"US","city":"Alameda","state":"CA","country":"United States","formattedAddress":["1 Airporr Dr","Alameda, CA 94502","United States"]},"categories":[{"id":"4bf58dd8d48988d1ca941735","name":"Pizza Place","pluralName":"Pizza Places","shortName":"Pizza","icon":{"prefix":"https://ss3.4sqi.net/img/categories_v2/food/pizza_","suffix":".png"},"primary":true}],"referralId":"v-1569281648","hasPerk":false},{"id":"4e4d60c0bd413c4cc670998b","name":"Little Caesars Pizza","location":{"address":"6447 International Blvd Ste E","lat":37.762725131268006,"lng":-122.19503859375588,"labeledLatLngs":[{"label":"display","lat":37.762725131268006,"lng":-122.19503859375588}],"distance":6620,"postalCode":"94621","cc":"US","city":"Oakland","state":"CA","country":"United States","formattedAddress":["6447 International Blvd Ste E","Oakland, CA 94621","United States"]},"categories":[{"id":"4bf58dd8d48988d1ca941735","name":"Pizza Place","pluralName":"Pizza Places","shortName":"Pizza","icon":{"prefix":"https://ss3.4sqi.net/img/categories_v2/food/pizza_","suffix":".png"},"primary":true}],"referralId":"v-1569281648","hasPerk":false},{"id":"4afa2ebaf964a520381722e3","name":"San Francisco Pizza & Restaurant","location":{"address":"1500 Broadway","crossStreet":"at 15th St","lat":37.805369240868906,"lng":-122.27045404682497,"labeledLatLngs":[{"label":"display","lat":37.805369240868906,"lng":-122.27045404682497}],"distance":2909,"postalCode":"94612","cc":"US","city":"Oakland","state":"CA","country":"United States","formattedAddress":["1500 Broadway (at 15th St)","Oakland, CA 94612","United States"]},"categories":[{"id":"4bf58dd8d48988d1ca941735","name":"Pizza Place","pluralName":"Pizza Places","shortName":"Pizza","icon":{"prefix":"https://ss3.4sqi.net/img/categories_v2/food/pizza_","suffix":".png"},"primary":true}],"delivery":{"id":"68379","url":"https://www.grubhub.com/restaurant/san-francisco-pizza-1500-broadway-ave-oakland/68379?affiliate=1131&utm_source=foursquare-affiliate-network&utm_medium=affiliate&utm_campaign=1131&utm_content=68379","provider":{"name":"grubhub","icon":{"prefix":"https://fastly.4sqi.net/img/general/cap/","sizes":[40,50],"name":"/delivery_provider_grubhub_20180129.png"}}},"venuePage":{"id":"55134816"},"referralId":"v-1569281648","hasPerk":false},{"id":"45b8bbb8f964a520d2411fe3","name":"Lanesplitter Pizza & Pub","location":{"address":"2033 San Pablo Ave","crossStreet":"at University Ave","lat":37.868654894270534,"lng":-122.29164679573839,"labeledLatLngs":[{"label":"display","lat":37.868654894270534,"lng":-122.29164679573839}],"distance":7913,"postalCode":"94702","cc":"US","city":"Berkeley","state":"CA","country":"United States","formattedAddress":["2033 San Pablo Ave (at University Ave)","Berkeley, CA 94702","United States"]},"categories":[{"id":"4bf58dd8d48988d1ca941735","name":"Pizza Place","pluralName":"Pizza Places","shortName":"Pizza","icon":{"prefix":"https://ss3.4sqi.net/img/categories_v2/food/pizza_","suffix":".png"},"primary":true}],"delivery":{"id":"1165622","url":"https://www.grubhub.com/restaurant/lanesplitter-pizza-2033-san-pablo-ave-berkeley/1165622?affiliate=1131&utm_source=foursquare-affiliate-network&utm_medium=affiliate&utm_campaign=1131&utm_content=1165622","provider":{"name":"grubhub","icon":{"prefix":"https://fastly.4sqi.net/img/general/cap/","sizes":[40,50],"name":"/delivery_provider_grubhub_20180129.png"}}},"referralId":"v-1569281648","hasPerk":false},{"id":"4bca1712937ca593d116a792","name":"Domino's Pizza","location":{"address":"3360 Grand Ave","lat":37.8136,"lng":-122.246337,"labeledLatLngs":[{"label":"display","lat":37.8136,"lng":-122.246337}],"distance":750,"postalCode":"94610","cc":"US","city":"Oakland","state":"CA","country":"United States","formattedAddress":["3360 Grand Ave","Oakland, CA 94610","United States"]},"categories":[{"id":"4bf58dd8d48988d1ca941735","name":"Pizza Place","pluralName":"Pizza Places","shortName":"Pizza","icon":{"prefix":"https://ss3.4sqi.net/img/categories_v2/food/pizza_","suffix":".png"},"primary":true}],"referralId":"v-1569281648","hasPerk":false},{"id":"4aaaa2f7f964a520bf5620e3","name":"Roba's Pizza","location":{"address":"2320 Powell St","lat":37.837448252772965,"lng":-122.30214817525642,"labeledLatLngs":[{"label":"display","lat":37.837448252772965,"lng":-122.30214817525642}],"distance":6320,"postalCode":"94608","cc":"US","city":"Emeryville","state":"CA","country":"United States","formattedAddress":["2320 Powell St","Emeryville, CA 94608","United States"]},"categories":[{"id":"4bf58dd8d48988d1ca941735","name":"Pizza Place","pluralName":"Pizza Places","shortName":"Pizza","icon":{"prefix":"https://ss3.4sqi.net/img/categories_v2/food/pizza_","suffix":".png"},"primary":true}],"referralId":"v-1569281648","hasPerk":false},{"id":"52cf701111d29143e6d4622e","name":"Fist of Flour Pizza Doughjo","location":{"address":"4166 MacArthur Blvd","crossStreet":"Maybelle","lat":37.78866864313213,"lng":-122.195813203277,"labeledLatLngs":[{"label":"display","lat":37.78866864313213,"lng":-122.195813203277}],"distance":4511,"postalCode":"94619","cc":"US","city":"Oakland","state":"CA","country":"United States","formattedAddress":["4166 MacArthur Blvd (Maybelle)","Oakland, CA 94619","United States"]},"categories":[{"id":"4bf58dd8d48988d1ca941735","name":"Pizza Place","pluralName":"Pizza Places","shortName":"Pizza","icon":{"prefix":"https://ss3.4sqi.net/img/categories_v2/food/pizza_","suffix":".png"},"primary":true}],"venuePage":{"id":"76992154"},"referralId":"v-1569281648","hasPerk":false},{"id":"4dca212345dd19439a03bcc3","name":"Hollywood Pizza","location":{"address":"3310 Lakeshore Ave","lat":37.810992045941006,"lng":-122.24393262187886,"labeledLatLngs":[{"label":"display","lat":37.810992045941006,"lng":-122.24393262187886}],"distance":500,"postalCode":"94610","cc":"US","city":"Oakland","state":"CA","country":"United States","formattedAddress":["3310 Lakeshore Ave","Oakland, CA 94610","United States"]},"categories":[{"id":"4bf58dd8d48988d1ca941735","name":"Pizza Place","pluralName":"Pizza Places","shortName":"Pizza","icon":{"prefix":"https://ss3.4sqi.net/img/categories_v2/food/pizza_","suffix":".png"},"primary":true}],"referralId":"v-1569281648","hasPerk":false}]}}
